{
	"restaurants": [
			{
					"id": 1,
					"name": "í• ë§¤êµ­ìˆ˜",
					"category": "í•œì‹",
					"address": "ëŒ€êµ¬ ë‹¬ì„œêµ¬ ì›”ë°°ë¡œ 123",
					"latitude": 35.8562,
					"longitude": 128.5327,
					"rating": 4.5,
					"price_range": "5000-10000",
					"phone": "053-111-1111",
					"hours": "09:00-21:00",
					"description": "50ë…„ ì „í†µì˜ ì†ì¹¼êµ­ìˆ˜ ì „ë¬¸ì ì…ë‹ˆë‹¤. ì§„í•œ ìœ¡ìˆ˜ì™€ ì«„ê¹ƒí•œ ë©´ë°œì´ ì¼í’ˆì…ë‹ˆë‹¤.",
					"menu": ["ì¹¼êµ­ìˆ˜", "ë¹„ë¹”êµ­ìˆ˜", "ë§Œë‘"],
					"tags": ["ì „í†µ", "êµ­ìˆ˜", "ì €ë ´í•œ"],
					"district": "ì›”ë°°ë™"
			},
			{
					"id": 2,
					"name": "ëŒ€ë°•ì‚¼ê²¹ì‚´",
					"category": "ê³ ê¸°",
					"address": "ëŒ€êµ¬ ë‹¬ì„œêµ¬ ì„±ì„œë¡œ 456",
					"latitude": 35.8520,
					"longitude": 128.5280,
					"rating": 4.3,
					"price_range": "15000-25000",
					"phone": "053-222-2222",
					"hours": "17:00-02:00",
					"description": "ì‹ ì„ í•œ êµ­ë‚´ì‚° ì‚¼ê²¹ì‚´ê³¼ ë‹¤ì–‘í•œ ë¶€ìœ„ë¥¼ ì¦ê¸¸ ìˆ˜ ìˆëŠ” ê³ ê¸°ì§‘ì…ë‹ˆë‹¤.",
					"menu": ["ì‚¼ê²¹ì‚´", "ëª©ì‚´", "ê°ˆë¹„", "ëœì¥ì°Œê°œ"],
					"tags": ["ê³ ê¸°", "íšŒì‹", "ëŠ¦ì€ì‹œê°„"],
					"district": "ì„±ì„œë™"
			},
			{
					"id": 3,
					"name": "ì´íƒœë¦¬ íŒŒìŠ¤íƒ€",
					"category": "ì–‘ì‹",
					"address": "ëŒ€êµ¬ ë‹¬ì„œêµ¬ ë‹¬êµ¬ë²ŒëŒ€ë¡œ 789",
					"latitude": 35.8600,
					"longitude": 128.5350,
					"rating": 4.2,
					"price_range": "12000-18000",
					"phone": "053-333-3333",
					"hours": "11:30-22:00",
					"description": "ì •í†µ ì´íƒˆë¦¬ì•„ íŒŒìŠ¤íƒ€ì™€ í”¼ìë¥¼ ë§›ë³¼ ìˆ˜ ìˆëŠ” ë ˆìŠ¤í† ë‘ì…ë‹ˆë‹¤.",
					"menu": ["í¬ë¦¼íŒŒìŠ¤íƒ€", "í† ë§ˆí† íŒŒìŠ¤íƒ€", "í”¼ì", "ë¦¬ì¡°ë˜"],
					"tags": ["íŒŒìŠ¤íƒ€", "ë°ì´íŠ¸", "ë¶„ìœ„ê¸°"],
					"district": "ë‹¬ì„œêµ¬ì²­"
			},
			{
					"id": 4,
					"name": "ì‹ ì „ë–¡ë³¶ì´",
					"category": "ë¶„ì‹",
					"address": "ëŒ€êµ¬ ë‹¬ì„œêµ¬ ì›”ë°°ë¡œ 234",
					"latitude": 35.8580,
					"longitude": 128.5300,
					"rating": 4.0,
					"price_range": "3000-8000",
					"phone": "053-444-4444",
					"hours": "10:00-23:00",
					"description": "ë§¤ì½¤ë‹¬ì½¤í•œ ë–¡ë³¶ì´ì™€ ë‹¤ì–‘í•œ ë¶„ì‹ë©”ë‰´ë¥¼ ì œê³µí•©ë‹ˆë‹¤.",
					"menu": ["ë–¡ë³¶ì´", "ìˆœëŒ€", "íŠ€ê¹€", "ë¼ë©´"],
					"tags": ["ë¶„ì‹", "ë§¤ìš´ë§›", "ì €ë ´í•œ"],
					"district": "ì›”ë°°ë™"
			},
			{
					"id": 5,
					"name": "ì»¤í”¼ë² ì´",
					"category": "ì¹´í˜",
					"address": "ëŒ€êµ¬ ë‹¬ì„œêµ¬ ì„±ì„œë¡œ 567",
					"latitude": 35.8540,
					"longitude": 128.5260,
					"rating": 4.4,
					"price_range": "4000-7000",
					"phone": "053-555-5555",
					"hours": "07:00-22:00",
					"description": "ì‹ ì„ í•œ ì›ë‘ì™€ ë‹¤ì–‘í•œ ë””ì €íŠ¸ë¥¼ ì¦ê¸¸ ìˆ˜ ìˆëŠ” ì¹´í˜ì…ë‹ˆë‹¤.",
					"menu": ["ì•„ë©”ë¦¬ì¹´ë…¸", "ë¼ë–¼", "ì¼€ì´í¬", "ìƒŒë“œìœ„ì¹˜"],
					"tags": ["ì¹´í˜", "ë””ì €íŠ¸", "ì¡°ìš©í•œ"],
					"district": "ì„±ì„œë™"
			}
	],
	"categories": [
			{ "id": "korean", "name": "í•œì‹", "icon": "ğŸš" },
			{ "id": "chinese", "name": "ì¤‘ì‹", "icon": "ğŸ¥¢" },
			{ "id": "japanese", "name": "ì¼ì‹", "icon": "ğŸ£" },
			{ "id": "western", "name": "ì–‘ì‹", "icon": "ğŸ" },
			{ "id": "meat", "name": "ê³ ê¸°", "icon": "ğŸ¥©" },
			{ "id": "snack", "name": "ë¶„ì‹", "icon": "ğŸ¢" },
			{ "id": "cafe", "name": "ì¹´í˜", "icon": "â˜•" },
			{ "id": "etc", "name": "ê¸°íƒ€", "icon": "ğŸ½ï¸" }
	],
	"districts": [
			"ì›”ë°°ë™", "ì„±ì„œë™", "ë‹¬ì„œêµ¬ì²­", "ìš©ì‚°ë™", "ë‘ë¥˜ë™", "ì´ê³¡ë™", "ê°ì‚¼ë™"
	]
}